STATE_NAME,DISTRICT,LATITUDE,LONGITUDE,ELEVATION,
Andaman and Nicobar,NICOBAR,7.00002,93.81105,124.2 ,
Andaman and Nicobar,SOUTH ANDAMAN,10.70569,92.48747,118.3,
Andaman and Nicobar,N & M ANDAMAN,12.68,92.71,83,
Arunachal Pradesh,LOHIT,27.13,96.16,581,
Arunachal Pradesh,EAST SIANG,28.09,95.92,151.1,
Arunachal Pradesh,SUBANSIRI ,27.62,93.6,1382.6,
Arunachal Pradesh,TIRAP,27,95.4,566.0 ,
Arunachal Pradesh,ANJAW ,27.48,95.75,4064.6 ,
Arunachal Pradesh,LOWER DIBANG,27.53,95.5,1264,
Arunachal Pradesh,CHANGLANG,27.12,95.61,481.9,
Arunachal Pradesh,PAPUM PARE,27.1,93.6,1343.5,
Arunachal Pradesh,LOW SUBANSIRI,27.01,93.57,1465.2,
Arunachal Pradesh,UPPER SIANG,28.03,94.96,2255.8,
Arunachal Pradesh,WEST SIANG,29.03,94.98,2176.5 ,
Arunachal Pradesh,DIBANG VALLEY,27.5,95.6,1447.6 ,
Arunachal Pradesh,WEST KAMENG,26.98,92.89,1603.8 ,
Arunachal Pradesh,EAST KAMENG,27.15,92.67,775.3,
Arunachal Pradesh,TAWANG,27.67,91.87,4310.8,
Arunachal Pradesh,KURUNG KUMEY,27,93.93,1909.4,
Assam,CACHAR,24.68,92.79,28.1,
Assam,DARRANG,26.3,92.08,59.6,
Assam,GOALPARA,26.18,90.61,48,
Assam,KAMRUP,26.2,91.6,41.8,
Assam,LAKHIMPUR,27.2,94.14,138.6,
Assam,NORTH CACHAR,24.7,92.9,223,
Assam,NAGAON,26.33136,92.75248,66,
Assam,SIVASAGAR,26.98349,94.63942,95.9 ,
Assam,BARPETA,26.34594,91.03971,37,
Assam,DHUBRI,26.13228,90.125,29,
Assam,DIBRUGARH,27.48446,94.90194,109,
Assam,JORHAT,26.75779,94.20796,95.3,
Assam,KARIMGANJ,24.58282,92.37255,74.2,
Assam,KOKRAJHAR,26.49121,90.12152,49.5,
Assam,SHONITPUR,26.677,92.6984,48,
Assam,GOLAGHAT,26.51083,93.97437,104.0 ,
Assam,TINSUKIA,27.48797,95.36019,128.2,
Assam,HAILAKANDI,24.6839,92.561,20,20
Assam,DHEMAJI,27.4833,94.5833,90,
Assam,KARBI ANGLONG,26,93.5,300-400,
Assam,UDALGURI,26.75,92.1,100,
Assam,KAMRUP METROP,26.1445,91.7362,55,
Assam,CHIRANG,26.5,90.7,60-80,
Assam,BAKSA BARPETA,26.7,91.2,100,
Assam,BONGAIGAON,26.5,90.56,62,
Assam,MORIGAON,26.25,92.35,65,
Assam,NALBARI,26.45,91.45,53,
Meghalaya,EAST KHASI HI,25.5788,91.8933,1525,
Meghalaya,JAINTIA HILLS,25.45,92.1,1380,
Meghalaya,EAST GARO ,25.5667,90.6,254,
Meghalaya,RI-BHOI,25.9,91.95,680,
Meghalaya,SOUTH GARO ,25.35,90.6167,180,
Meghalaya,W KHASI ,25.5667,91.2667,1450,
Meghalaya,WEST GARO ,25.57,90.22,,
Manipur,IMPHAL EAST,24.817,93.95,,786
Manipur,SENAPATI,25.276,94.02,1300,
Manipur,TAMENGLONG,25,93.5,1380,
Manipur,CHANDEL,24.3,94,900,
Manipur,UKHRUL,25.02,94.35,1662,
Manipur,THOUBAL,24.64,94.02,790,
Manipur,BISHNUPUR,24.63,93.76,828,
Manipur,IMPHAL WEST,24.8167,93.9333,786,
Manipur,CHURACHANDPUR,24.333,93.633,914,
Mizoram,AIZAWL,23.7271,92.7176,1132,
Mizoram,CHAMPHAI,23.47,93.33,1678,
Mizoram,KOLASIB,24.233,92.633,888,
Mizoram,LUNGLEI,22.88,92.73,1222,
Mizoram,CHHIMTUIPUI,22.35,93,1200,
Mizoram,LAWNGTLAI,22.5,92.9,722,
Mizoram,MAMIT,23.93,92.49,718,
Mizoram,SAIHA,22.48,92.97,1225,
Mizoram,SERCHHIP,23.3,92.833,888,
Nagaland,KOHIMA,25.67,94.11,1444,
Nagaland,TUENSANG,26.28,94.82,1371,
Nagaland,MOKOKCHUNG,26.32,94.53,1325,
Nagaland,DIMAPUR,25.91,93.73,145,
Nagaland,WOKHA,26.1,94.27,1313,
Nagaland,MON,26.75,95.1,655,
Nagaland,ZUNHEBOTO,26,94.52,1874,
Nagaland,PHEK,25.67,94.48,1524,
Nagaland,KEPHRIE,25.65,94.8,1200,
Nagaland,LONGLENG,26.5,94.8,1066,
Nagaland,PEREN,25.55,93.42,1100,
Tripura,NORTH TRIPURA,24.3,92.08,70,
Tripura,SOUTH TRIPURA,23.52,91.51,36,
Tripura,WEST TRIPURA,23.84,91.28,49,
Tripura,DHALAI,23.96,91.99,95,
West Bengal,COOCH BEHAR,26.32,89.45,42,
West Bengal,DARJEELING,27.05,88.27,2042,
West Bengal,JALPAIGURI,26.52,88.72,89,
West Bengal,MALDA,25,88.15,17,
West Bengal,SOUTH DINAJPUR,25.35,88.75,25,
West Bengal,NORTH DINAJPUR,25.63,88.12,34,
Sikkim,NORTH SIKKIM,27.61,88.53,1780,
Sikkim,EAST SIKKIM,27.33,88.62,1240,
Sikkim,WEST SIKKIM,27.25,88.27,1580,
Sikkim,SOUTH SIKKIM,27.28,88.49,1300,
West Bengal,BANKURA,23.23,87.07,78,
West Bengal,BIRBHUM,23.84,87.62,59,
West Bengal,BURDWAN,23.25,87.85,30,
West Bengal,HOOGHLY,22.89,88.39,15,
West Bengal,HOWRAH,22.58,88.33,12,
West Bengal,PURULIA,23.33,86.36,228,
West Bengal,MURSHIDABAD,24.18,88.27,19,
West Bengal,NADIA,23.47,88.58,18,
West Bengal,NORTH 24 PARG,22.64,88.43,6,
West Bengal,SOUTH 24 PARG,22.15,88.35,6,
West Bengal,EAST MIDNAPOR,22.31,87.92,9,
West Bengal,WEST MIDNAPOR,22.43,87.32,27,
West Bengal,KOLKATA,22.57,88.36,9,
Odisha,BALASORE,21.5,86.92,16,
Odisha,BOLANGIR,20.72,83.48,178,
Odisha,KANDHAMAL,20.47,84.23,485,
Odisha,CUTTACK,20.52,85.8,36,
Odisha,DHENKANAL,20.65,85.6,80,
Odisha,GANJAM,19.35,84.8,26,
Odisha,KALAHANDI,19.91,83.16,178,
Odisha,KEONDJHARGARH,21.63,85.58,480,
Odisha,KORAPUT,18.81,82.71,870,
Odisha,MAYURBHANJ,22.12,86.62,129,
Odisha,PURI,19.8,85.82,7,
Odisha,SAMBALPUR,21.47,83.97,150,
Odisha,SUNDARGARH,22.12,84.03,243,
Odisha,BHADRAK,21.06,86.5,19,
Odisha,JAJPUR,20.85,86.34,36,
Odisha,KENDRAPARA,20.5,86.42,13,
Odisha,ANGUL,20.84,85.11,195,
Odisha,NAWAPARA,20.71,82.62,226,
Odisha,MALKANGIRI,18.35,81.88,220,
Odisha,NAWARANGPUR,19.23,82.55,568,
Odisha,NAYAGARH,20.13,85.08,178,
Odisha,KHURDA,20.18,85.62,45,
Odisha,BARGARH,21.33,83.62,173,
Odisha,JHARSUGUDA,21.85,84.03,218,
Odisha,DEOGARH,21.54,84.73,262,
Odisha,RAYAGADA,19.17,83.42,207,
Odisha,GAJAPATI,18.82,84.1,1260,
Odisha,JAGATSINGHAPU,20.27,86.17,10,
Odisha,BOUDHGARH,20.84,84.32,261,
Odisha,SONEPUR,20.84,83.92,121,
Jharkhand,BOKARO,23.79,85.99,210,
Jharkhand,DHANBAD,23.8,86.42,222,
Jharkhand,DUMKA,24.27,87.26,137,
Jharkhand,HAZARIBAG,23.99,85.36,615,
Jharkhand,PALAMU,24.08,84.07,201,
Jharkhand,RANCHI,23.36,85.33,651,
Jharkhand,SAHIBGANJ,25.25,87.65,30,
Jharkhand,WEST SINGHBHUM,22.57,85.8,270,
Jharkhand,DEOGHAR,24.48,86.7,254,
Jharkhand,GIRIDIH,24.18,86.3,289,
Jharkhand,GODDA,24.83,87.22,112,
Jharkhand,GUMLA,23.04,84.53,681,
Jharkhand,LOHARDAGA,23.43,84.68,647,
Jharkhand,CHATRA,24.22,84.87,450,
Jharkhand,KODERMA,24.47,85.59,397,
Jharkhand,PAKUR,24.64,87.84,35,
Jharkhand,EAST SINGHBHU,22.77,86.2,178,
Jharkhand,GARHWA,24.18,83.81,198,
Jharkhand,SERAIKELA-KHA,22.7,85.93,178,
Jharkhand,JAMTARA,23.95,86.8,155,
Jharkhand,LATEHAR,23.75,84.51,450,
Jharkhand,SIMDEGA,22.61,84.52,418,
Jharkhand,KHUNTI,23.08,85.28,611,
Jharkhand,RAMGARH,23.63,85.51,333,
Bihar,BHAGALPUR,25.25,87.01,35,
Bihar,EAST CHAMPARAN,26.5,84.5,45,
Bihar,DARBHANGA,26.15,85.9,49,
Bihar,GAYA,24.78,85,108,
Bihar,MUNGER,25.37,86.47,63,
Bihar,MUZAFFARPUR,26.12,85.39,48,
Bihar,WEST CHAMPARAN,27,84.38,60,
Bihar,PURNEA,25.78,87.47,45,
Bihar,GOPALGANJ,26.24,84.37,50,
Bihar,MADHUBANI,26.1,86.2,49,
Bihar,AURANGABAD,24.75,84.3,222,
Bihar,BEGUSARAI,25.42,86.13,46,
Bihar,BHOJPUR,25.4,84.5,48,
Bihar,NALANDA,25.23,85.52,56,
Bihar,PATNA,25.6,85.1,53,
Bihar,KATIHAR,25.53,87.6,40,
Bihar,KHAGARIA,25.5,86.5,45,
Bihar,SARAN,25.75,84.78,48,
Bihar,MADHEPURA,25.88,86.57,50,
Bihar,NAWADA,25.05,85.45,52,
Bihar,ROHTAS,25.07,84,147,
Bihar,SAMASTIPUR,25.87,85.71,52,
Bihar,SITAMARHI,26.24,85.6,46,
Bihar,SIWAN,26.02,84.55,49,
Bihar,VAISHALI,25.63,85.1,55,
Bihar,JAHANABAD,25.23,85.25,50,
Bihar,BUXAR,25.37,84.13,55,
Bihar,ARARIA,26.12,87.5,45,
Bihar,BANKA,24.9,86.43,63,
Bihar,BHABUA,24.5,84.47,98,
Bihar,JAMUI,24.92,86.25,65,
Bihar,KISHANGANJ,26.05,87.95,43,
Bihar,SHEIKHPURA,25.25,85.95,60,
Bihar,SUPAUL,26.03,86.6,52,
Bihar,LAKHISARAI,25.2,86,72,
Bihar,SHEOHAR,26.15,85.62,60,
Bihar,ARWAL,24.83,85.4,50,
Bihar,SAHARSA,26.15,86.61,52,
Uttar Pradesh,ALLAHABAD,25.45,81.84,98,
Uttar Pradesh,AZAMGARH,26.06,83.18,77,
Uttar Pradesh,BAHRAICH,27.56,81.63,118,
Uttar Pradesh,BALLIA,25.74,84.13,55,
Uttar Pradesh,BANDA,25.45,80.33,116,
Uttar Pradesh,BARABANKI,26.88,81.25,117,
Uttar Pradesh,BASTI,26.89,82.74,90,
Uttar Pradesh,DEORIA,26.5,83.78,79,
Uttar Pradesh,FAIZABAD,26.76,82.13,83,
Uttar Pradesh,FARRUKHABAD,27.4,79.58,152,
Uttar Pradesh,FATEHPUR,25.92,80.82,115,
Uttar Pradesh,GHAZIPUR,25.58,83.58,60,
Uttar Pradesh,GONDA,27.13,81.97,123,
Uttar Pradesh,GORAKHPUR,28.37,83.37,80,
Uttar Pradesh,HARDOI,27.06,80.13,140,
Uttar Pradesh,JAUNPUR,25.74,82.71,84,
Uttar Pradesh,KANPUR NAGAR,26.45,80.33,126,
Uttar Pradesh,KHERI LAKHIMP,27.83,80.76,142,
Uttar Pradesh,LUCKNOW,26.85,80.9,123,
Uttar Pradesh,MIRZAPUR,25.15,82.58,82,
Uttar Pradesh,PRATAPGARH,25.92,81.49,109,
Uttar Pradesh,RAE BARELI,26.23,81.24,108,
Uttar Pradesh,SITAPUR,27.56,80.68,124,
Uttar Pradesh,SULTANPUR,26.25,82.07,90,
Uttar Pradesh,UNNAO,26.55,80.52,128,
Uttar Pradesh,VARANASI,25.32,82.99,74,
Uttar Pradesh,SONBHADRA,24.15,82.7,262,
Uttar Pradesh,MAHARAJGANJ,27.06,83.69,100,
Uttar Pradesh,MAU,26.29,83.41,70,
Uttar Pradesh,SIDDHARTH NGR,26.58,83.25,105,
Uttar Pradesh,KUSHINAGAR,26.75,83.69,67,
Uttar Pradesh,AMBEDKAR NAGAR,26.2,82.43,104,
Uttar Pradesh,KANNAUJ,27.07,79.98,127,
Uttar Pradesh,BALRAMPUR,27.38,81.85,98,
Uttar Pradesh,KAUSHAMBI,25.75,81.35,110,
Uttar Pradesh,SAHUJI MAHARA,27.04,81.48,130,
Uttar Pradesh,KANPUR DEHAT,26.51,79.97,135,
Uttar Pradesh,CHANDAULI,25.45,83.15,105,
Uttar Pradesh,SANT KABIR NGR,26,82.51,100,
Uttar Pradesh,SANT RAVIDAS,25.49,82.29,80,
Uttar Pradesh,SHRAVASTI NGR,25.49,82.29,80,
Uttar Pradesh,AGRA,27.18,78.02,169,
Uttar Pradesh,ALIGARH,27.89,78.08,175,
Uttar Pradesh,BAREILLY,28.35,79.42,169,
Uttar Pradesh,BIJNOR,29.15,78.15,195,
Uttar Pradesh,BADAUN,28.03,79.12,181,
Uttar Pradesh,BULANDSHAHAR,28.4,77.93,191,
Uttar Pradesh,ETAH,27.55,78.61,165,
Uttar Pradesh,ETAWAH,27.55,78.61,165,
Uttar Pradesh,HAMIRPUR,25.96,79.65,134,
Uttar Pradesh,JALAUN,25.46,79.57,144,
Uttar Pradesh,JHANSI,25.45,78.57,256,
Uttar Pradesh,LALITPUR,24.67,78.18,270,
Uttar Pradesh,MAINPURI,27.23,79,172,
Uttar Pradesh,MATHURA,27.48,77.67,179,
Uttar Pradesh,MEERUT,28.99,77.71,220,
Uttar Pradesh,MORADABAD,28.84,78.77,180,
Uttar Pradesh,MUZAFFARNAGAR,29.47,77.7,230,
Uttar Pradesh,PILIBHIT,28.62,79.8,169,
Uttar Pradesh,RAMPUR,28.82,79.03,182,
Uttar Pradesh,SAHARANPUR,29.97,77.55,252,
Uttar Pradesh,SHAHJAHANPUR,27.89,79.91,157,
Uttar Pradesh,GHAZIABAD,28.65,77.23,211,
Uttar Pradesh,FIROZABAD,27.15,78.42,169,
Uttar Pradesh,MAHOBA,25.1,80.03,165,
Uttar Pradesh,MAHAMAYA NAGA,27.16,77.94,184,
Uttar Pradesh,AURAIYA,26.67,79.43,159,
Uttar Pradesh,BAGPAT,29.05,77.18,211,
Uttar Pradesh,JYOTIBA PHULE,28.5,77.25,219,
Uttar Pradesh,GAUTAM BUDDHA,28.3,77.5,205,
Uttar Pradesh,KANSHIRAM NAG,28.35,77.23,212,
Uttarakhand,ALMORA,29.6,79.6,1633,
Uttarakhand,CHAMOLI,30.45,79.47,1300,
Uttarakhand,DEHRADUN,30.31,78.03,700,
Uttarakhand,GARHWAL PAURI,30.17,78.77,1470,
Uttarakhand,NAINITAL,29.38,79.46,1938,
Uttarakhand,PITHORAGARH,29.58,80.24,2000,
Uttarakhand,GARHWAL TEHRI,30.05,78.48,1572,
Uttarakhand,UTTARKASHI,30.73,78.45,1150,
Uttarakhand,HARIDWAR,29.95,78.16,314,
Uttarakhand,CHAMPAWAT,29.03,80.12,1680,
Uttarakhand,RUDRAPRAYAG,30.22,78.98,1126,
Uttarakhand,UDHAM SINGH N,29.58,78.1,250,
Uttarakhand,BAGESHWAR,29.57,80.23,1132,
Haryana,AMBALA,30.38,76.77,274,
Haryana,GURGAON,28.45,77.03,213,
Haryana,HISAR,29.15,75.74,215,
Haryana,JIND,29.315,76.29,230,
Haryana,KARNAL,29.68,76.98,232,
Haryana,MAHENDRAGARH,27.5,76.52,292,
Haryana,ROHTAK,28.9,76.6,228,
Haryana,BHIWANI,28.78,75.63,226,
Haryana,FARIDABAD,28.4,77.3,198,
Haryana,KURUKSHETRA,29.95,76.85,243,
Haryana,SIRSA,29.53,75.03,215,
Haryana,SONEPAT,28.99,77.01,222,
Haryana,YAMUNANAGAR,30.13,77.28,233,
Haryana,KAITHAL,29.78,76.38,224,
Haryana,PANIPAT,29.39,76.97,222,
Haryana,REWARI,28.19,76.62,232,
Haryana,FATEHABAD,29.5,75.45,212,
Haryana,JHAJJAR,28.6,76.62,225,
Haryana,PANCHKULA,30.7,76.86,300,
Haryana,MEWAT,28.05,77.1,232,
Haryana,PALWAL,28.15,77.35,207,
Haryana,CHANDIGARH,30.735,76.786,321,
Delhi,NEW DELHI,28.6139,77.209,216,
Delhi,CENTRAL DELHI,28.635,77.215,220,
Delhi,EAST DELHI,28.65,77.3,210,
Delhi,NORTH DELHI,28.7,77.2,230,
Delhi,NE DELHI,28.65,77.29,220,
Delhi,SW DELHI,28.51,77.21,215,
Delhi,NW DELHI,28.7,77.2,240,
Delhi,SOUTH DELHI,28.5,77.2,235,
Delhi,WEST DELHI,28.65,77.1,225,
Punjab,AMRITSAR,31.63,74.87,229,
Punjab,BATHINDA,30.2,74.95,196,
Punjab,FEROZEPUR,30.93,74.6,194,
Punjab,GURDASPUR,32.07,75.39,220,
Punjab,HOSHIARPUR,31.52,75.88,257,
Punjab,JALANDHAR,31.32,75.57,236,
Punjab,KAPURTHALA,31.37,75.38,240,
Punjab,LUDHIANA,30.9,75.85,242,
Punjab,PATIALA,30.34,76.38,246,
Punjab,RUPNAGAR,30.98,76.54,295,
Punjab,SANGRUR,30.24,75.85,238,
Punjab,FARIDKOT,30.67,74.76,208,
Punjab,MOGA,30.81,75.17,212,
Punjab,NAWANSHAHR,31.13,75.79,234,
Punjab,FATEHGARH SAH,31.34,75.83,248,
Punjab,MUKTSAR,30.48,74.51,208,
Punjab,MANSA,29.99,75.1,210,
Punjab,BARNALA,29.95,75.56,229,
Punjab,SAS NAGAR,30.69,76.71,271,
Punjab,TARN TARAN,31.42,74.95,213,
Himachal Pradesh,BILASPUR,31.14,76.78,673,
Himachal Pradesh,CHAMBA,32.03,76.12,960,
Himachal Pradesh,KANGRA,32.03,76.28,710,
Himachal Pradesh,KINNAUR,31.64,78.27,3280,
Himachal Pradesh,KULLU,32.02,77.1,1319,
Himachal Pradesh,LAHUL & SPITI,32.6,77.7,3800,
Himachal Pradesh,MANDI,32.06,76.92,760,
Himachal Pradesh,HAMIRPUR,32.07,76.6,900,
Himachal Pradesh,SHIMLA,31.1048,77.17,2200,
Himachal Pradesh,SIRMAUR,30.9,77.3,620,
Himachal Pradesh,SOLAN,30.9,77.1,1450,
Himachal Pradesh,UNA,32.1,76.3,467,
Himachal Pradesh,ANANTNAG,33.75,75.15,1600,
Himachal Pradesh,BARAMULLA,34.2,74.37,1585,
Himachal Pradesh,DODA,33.14,75.56,1200,
Himachal Pradesh,JAMMU,32.73,74.87,305,
Himachal Pradesh,KATHUA,32.58,75.45,329,
Ladakh,LADAKH (LEH),34.1667,77.5833,3500,
Jammu and Kashmir,UDHAMPUR,32.97,75.25,1085,
Jammu and Kashmir,BADGAM,33.99,74.79,1500,
Jammu and Kashmir,KUPWARA,34.83,74.35,1650,
Jammu and Kashmir,PULWAMA,33.87,74.89,1619,
Jammu and Kashmir,SRINAGAR,34.08,74.78,1586,
Jammu and Kashmir,KARGIL,34.55,76.14,2716,
Jammu and Kashmir,POONCH,33.74,74.07,996,
Jammu and Kashmir,RAJOURI,33.28,74.3,944,
Jammu and Kashmir,BANDIPORE,34.42,74.65,1600,
Jammu and Kashmir,GANDERWAL,34.28,74.67,1690,
Jammu and Kashmir,KULGAM,33.67,75.03,1600,
Jammu and Kashmir,SHOPAN,33.55,75.13,1620,
Jammu and Kashmir,SAMBA,32.58,75.04,340,
Jammu and Kashmir,KISTWAR,33.05,75.78,1324,
Jammu and Kashmir,REASI,33.06,75.22,1055,
Jammu and Kashmir,RAMBAN,33.09,75.31,1190,
Rajasthan,BARMER,25.75,71.4,223,
Rajasthan,BIKANER,28.022,73.311,241,
Rajasthan,CHURU,28.3,74.95,258,
Rajasthan,SRI GANGANAGA,29.912,73.883,185,
Rajasthan,JAISALMER,26.915,70.92,229,
Rajasthan,JALORE,25.14,72.62,243,
Rajasthan,JODHPUR,26.295,73.016,230,
Rajasthan,NAGAUR,27.2,73.65,284,
Rajasthan,PALI,25.77,73.3,243,
Rajasthan,HANUMANGARH,29.053,74.126,194,
Rajasthan,AJMER,26.449,74.638,1320,
Rajasthan,ALWAR,27.56,76.6,289,
Rajasthan,BANSWARA,23.552,74.439,301,
Rajasthan,BHARATPUR,27.21,77.49,178,
Rajasthan,BHILWARA,25.37,74.63,450,
Rajasthan,BUNDI,25.44,75.6,230,
Rajasthan,CHITTORGARH,24.88,74.629,402,
Rajasthan,DUNGARPUR,23.849,73.72,372,
Rajasthan,JAIPUR,26.912,75.82,431,
Rajasthan,JHALAWAR,24.59,76.15,266,
Rajasthan,JHUNJHUNU,28.099,75.399,306,
Rajasthan,KOTA,25.18,75.83,258,
Rajasthan,SAWAI MADHOPUR,26.028,76.34,296,
Rajasthan,SIKAR,27.61,75.64,408,
Rajasthan,SIROHI,24.883,72.632,231,
Rajasthan,TONK,26.12,75.65,306,
Rajasthan,UDAIPUR,24.585,73.712,579,
Rajasthan,DHOLPUR,26.695,77.051,181,
Rajasthan,BARAN,25.119,76.5,249,
Rajasthan,DAUSA,26.88,75.65,320,
Rajasthan,RAJSAMAND,25.27,73.9,388,
Rajasthan,KARAULI,26.484,77.035,272,
Rajasthan,PRATAPGARH,24.06,74.6,279,
Madhya Pradesh,BETUL,21.92,77.9,610,
Madhya Pradesh,VIDISHA,23.483,77.801,391,
Madhya Pradesh,BHIND,26.574,78.543,181,
Madhya Pradesh,DATIA,26.024,78.455,185,
Madhya Pradesh,DEWAS,23.22,76.05,515,
Madhya Pradesh,DHAR,22.6,75.3,603,
Madhya Pradesh,GUNA,24.65,77.32,525,
Madhya Pradesh,GWALIOR,26.229,78.179,219,
Madhya Pradesh,HOSHANGABAD,22.77,77.72,293,
Madhya Pradesh,INDORE,22.717,75.857,553,
Madhya Pradesh,JHABUA,23.1,74.6,257,
Madhya Pradesh,MANDSAUR,24.09,75.08,399,
Madhya Pradesh,MORENA,26.571,77.682,193,
Madhya Pradesh,KHANDWA,21.83,76.34,251,
Madhya Pradesh,KHARGONE,21.54,75.6,311,
Madhya Pradesh,RAISEN,23.2,77.95,440,
Madhya Pradesh,RAJGARH,23.65,76.48,507,
Madhya Pradesh,RATLAM,23.32,75.05,502,
Madhya Pradesh,SEHORE,23.11,77.09,532,
Madhya Pradesh,SHAJAPUR,23.54,76.29,431,
Madhya Pradesh,SHIVPURI,25.42,77.65,449,
Madhya Pradesh,UJJAIN,23.18,75.78,494,
Madhya Pradesh,BHOPAL,23.2599,77.4126,501,
Madhya Pradesh,HARDA,22.75,77.21,291,
Madhya Pradesh,NEEMUCH,24.58,75.58,432,
Madhya Pradesh,SHEOPUR,25.6,76.79,329,
Madhya Pradesh,BARWANI,21.96,74.9,283,
Madhya Pradesh,ASHOKNAGAR,24.4,77.73,462,
Madhya Pradesh,BURHANPUR,21.3,76.24,186,
Madhya Pradesh,ALIRAJPUR,22.73,74.23,368,
Madhya Pradesh,BALAGHAT,21.8,80.18,543,
Madhya Pradesh,CHHATARPUR,24.37,79.58,311,
Madhya Pradesh,CHHINDWARA,22.07,78.94,688,
Madhya Pradesh,JABALPUR,23.18,79.95,408,
Madhya Pradesh,MANDLA,22.94,80.63,433,
Madhya Pradesh,NARSINGHPUR,22.97,79.08,317,
Madhya Pradesh,PANNA,24.68,80.25,420,
Madhya Pradesh,REWA,24.52,81.3,326,
Madhya Pradesh,SAGAR,23.86,78.76,516,
Madhya Pradesh,SATNA,24.57,80.821,348,
Madhya Pradesh,SEONI,22.11,79.55,444,
Madhya Pradesh,SHAHDOL,23.26,81.32,336,
Madhya Pradesh,SIDHI,23.56,81.9,308,
Madhya Pradesh,TIKAMGARH,24.55,78.33,439,
Madhya Pradesh,KATNI,23.8,80.42,435,
Madhya Pradesh,DINDORI,22.95,81.54,422,
Madhya Pradesh,UMARIA,23.1,81.95,407,
Madhya Pradesh,DAMOH,23.85,79.3,453,
Madhya Pradesh,ANUPPUR,23.12,81.7,384,
Madhya Pradesh,SINGRAULI,24.2,82.65,347,
Gujarat,AHMEDABAD,23.0225,72.5714,53,
Gujarat,BANASKANTHA,24.5,72.99,217,
Gujarat,BARODA,22.3,73.2,39,
Gujarat,BHARUCH,21.71,72.97,20,
Gujarat,VALSAD,20.63,72.94,11,
Gujarat,DANGS,20.574,73.538,323,
Gujarat,KHEDA,22.9,72.66,39,
Gujarat,MEHSANA,23.6,72.65,92,
Gujarat,PANCHMAHALS,23.45,73.6,240,
Gujarat,SABARKANTHA,23.78,72.63,383,
Gujarat,SURAT,21.17,72.83,10,
Gujarat,GANDHINAGAR,23.2156,72.6369,81,
Gujarat,NARMADA,21.8,73.67,122,
Gujarat,NAVSARI,20.95,72.92,15,
Gujarat,ANAND,22.55,72.96,47,
Gujarat,PATAN,23.85,72.12,153,
Gujarat,DAHOD,22.6,74.1,150,
Gujarat,TAPI,20.34,73.63,70,
Gujarat,AMRELI,21.58,71.22,104,
Gujarat,BHAVNAGAR,21.77,72.15,26,
Gujarat,JAMNAGAR,22.47,70.07,12,
Gujarat,JUNAGADH,21.52,70.47,58,
Gujarat,KUTCH,23.8,68.22,73,
Gujarat,RAJKOT,22.3,70.8,125,
Gujarat,SURENDRANAGAR,22.72,71.68,158,
Gujarat,PORBANDAR,21.64,69.61,16,
Dadra and Nagar Haveli,DNH,20.25,73.0167,6,
Daman,DAMAN,20.4,72.85,11,
Diu,DIU,20.71,70.97,3,
Maharashtra,MUMBAI CITY,18.975,72.8258,14,
Maharashtra,RAIGAD,18.84,73.07,25,
Maharashtra,RATNAGIRI,16.99,73.31,19,
Maharashtra,THANE,19.2183,72.9783,12,
Maharashtra,SINDHUDURG,16.13572,73.65221,190.2,
Maharashtra,MUMBAI SUB,65.01183,25.48256,15,
Goa,NORTH GOA,15.60444,74.00172,43.3,
Goa,SOUTH GOA,15.27,74.1,20,
Maharashtra,AHMEDNAGAR,19.1,74.75,649,
Maharashtra,DHULE,20.9,74.78,250,
Maharashtra,JALGAON,21.01,75.56,209,
Maharashtra,KOLHAPUR,16.7,74.22,570,
Maharashtra,NASHIK,19.99,73.79,560,
Maharashtra,PUNE,18.52,73.85,560,
Maharashtra,SANGLI,16.86,74.56,560,
Maharashtra,SATARA,17.68,73.99,742,
Maharashtra,SOLAPUR,17.68,75.9,457,
Maharashtra,NANDURBAR,21.37,74.24,210,
Maharashtra,AURANGABAD,19.88,75.32,582,
Maharashtra,BEED,18.99,75.76,532,
Maharashtra,NANDED,19.15,77.32,363,
Maharashtra,OSMANABAD,18.18,76.04,653,
Maharashtra,PARBHANI,19.27,76.77,440.3,
Maharashtra,LATUR,18.4,76.57,636,
Maharashtra,JALNA,19.84,75.88,509,
Maharashtra,HINGOLI,19.72,77.15,457,
Maharashtra,AKOLA,20.71,77.01,284,
Maharashtra,AMRAVATI,20.93,77.75,343,
Maharashtra,BHANDARA,21.18,79.65,244,
Maharashtra,BULDHANA,20.53,76.18,639,
Maharashtra,CHANDRAPUR,19.96,79.3,189,
Maharashtra,NAGPUR,21.15,79.09,310,
Maharashtra,YAVATMAL,20.4,78.13,445,
Maharashtra,WARDHA,20.75,78.6,234,
Maharashtra,GADCHIROLI,20.1,80,217,
Maharashtra,WASHIM,20.12,77.13,546,
Maharashtra,GONDIA,21.45,80.2,311,
Chhattisgarh,BASTAR,19.07,81.98,552,
Chhattisgarh,BILASPUR,22.08,82.15,264,
Chhattisgarh,DURG,21.19,81.28,289,
Chhattisgarh,RAIGARH,21.9,83.4,215,
Chhattisgarh,RAIPUR,21.25,81.63,298,
Chhattisgarh,SURGUJA,23.13,83.2,602,
Chhattisgarh,RAJNANDGAON,21.1,81.03,307,
Chhattisgarh,DANTEWADA,18.9,81.35,384,
Chhattisgarh,KANKER ,20.27,81.49,388,
Chhattisgarh,JANJGIR-CHAMP,21.97,82.8,248,
Chhattisgarh,KORBA,22.35,82.68,303,
Chhattisgarh,JASHPUR,22.9,84.14,753,
Chhattisgarh,DHAMTARI,20.71,81.55,317,
Chhattisgarh,MAHASAMUND,21.11,82.1,318,
Chhattisgarh,KORIYA,23.2,82.7,650,
Chhattisgarh,KOWARDHA ,22,81.23,353,
Chhattisgarh,NARAYANPUR,19.62,81.25,556,
Chhattisgarh,BIJAPUR,18.8,80.83,450,
Andhra Pradesh,EAST GODAVARI,16.97,82.24,14,
Andhra Pradesh,WEST GODAVARI,16.82,81.52,15,
Andhra Pradesh,GUNTUR,16.31,80.44,33,
Andhra Pradesh,KRISHNA,16.51,80.63,14,
Andhra Pradesh,NELLORE,14.44,79.99,18,
Andhra Pradesh,PRAKASAM,15.56,80.05,10,
Andhra Pradesh,SRIKAKULAM,18.3,83.9,26,
Andhra Pradesh,VISAKHAPATNAM,17.73,83.31,45,
Andhra Pradesh,VIZIANAGARAM,18.12,83.41,74,
Telangana,ADILABAD,19.67,78.53,264,
Telangana,HYDERABAD,17.39,78.49,542,
Telangana,KARIMNAGAR,18.44,79.13,265,
Telangana,KHAMMAM,17.25,80.15,107,
Telangana,MAHABUBNAGAR,16.74,77.99,498,
Telangana,MEDAK,18.03,78.26,442,
Telangana,NALGONDA,17.05,79.27,421,
Telangana,NIZAMABAD,18.67,78.1,389,
Telangana,WARANGAL,17.98,79.6,266,
Telangana,RANGAREDDY,17.3,78.38,582,
Andhra Pradesh,ANANTAPUR,14.68,77.6,453,
Andhra Pradesh,CHITTOOR,13.22,79.1,335,
Andhra Pradesh,KUDDAPAH,14.47,78.82,138,
Andhra Pradesh,KURNOOL,15.83,78.05,273,
Tamil Nadu,VELLORE,12.92,79.13,216,
Tamil Nadu,COIMBATORE,11.01,76.96,411,
Tamil Nadu,DHARMAPURI,12.13,78.16,493,
Tamil Nadu,KANYAKUMARI,8.09,77.55,35,
Tamil Nadu,CHENNAI,13.08,80.27,6,
Tamil Nadu,MADURAI,9.93,78.12,101,
Tamil Nadu,NILGIRIS,11.41,76.7,2240,
Tamil Nadu,RAMANATHAPURA,9.37,78.83,13,
Tamil Nadu,SALEM,11.65,78.15,278,
Tamil Nadu,THANJAVUR,10.79,79.14,58,
Tamil Nadu,TIRUCHIRAPPAL,10.79,78.7,88,
Tamil Nadu,TIRUNELVELI,8.73,77.7,47,
Tamil Nadu,ERODE,11.34,77.72,183,
Tamil Nadu,PUDUKKOTTAI,10.38,78.82,95,
Tamil Nadu,DINDIGUL,10.35,77.95,287,
Tamil Nadu,VIRUDHUNAGAR,9.59,77.96,104,
Tamil Nadu,SIVAGANGA,9.85,78.48,102,
Tamil Nadu,THOOTHUKUDI,8.81,78.13,4,
Tamil Nadu,TIRUVANNAMALA,12.23,79.07,171,
Tamil Nadu,NAGAPATTINAM,10.76,79.84,9,
Tamil Nadu,VILUPPURAM,11.94,79.49,75,
Tamil Nadu,CUDDALORE,11.75,79.75,6,
Tamil Nadu,KANCHIPURAM,12.84,79.7,83,
Tamil Nadu,TIRUVALLUR,13.14,79.91,38,
Tamil Nadu,THENI,10.01,77.47,298,
Tamil Nadu,NAMAKKAL,11.22,78.17,218,
Tamil Nadu,KARUR,10.96,78.08,121,
Tamil Nadu,PERAMBALUR,11.23,78.87,130,
Tamil Nadu,TIRUVARUR,10.77,79.63,14,
Tamil Nadu,KRISHNAGIRI,12.52,78.21,631,
Tamil Nadu,ARIYALUR,11.14,79.08,90,
Tamil Nadu,TIRUPUR,11.11,77.34,294,
Puducherry,PONDICHERRY,11.93,79.83,3,
Puducherry,KARAIKAL,10.92,79.83,5,
Puducherry,MAHE,11.7,75.53,6,
Puducherry,YANAM,16.73,82.22,8,
Karnataka,UTTAR KANNADA,14.8,74.13,588,
Karnataka,DAKSHIN KANDA,12.91,74.85,22,
Karnataka,UDUPI,13.34,74.75,27,
Karnataka,BELGAM,15.86,74.5,779,
Karnataka,BIDAR,17.91,77.52,615,
Karnataka,BIJAPUR,16.83,75.71,606,
Karnataka,DHARWAD,15.46,75,742,
Karnataka,GULBARGA,17.33,76.83,466,
Karnataka,YADGIR,16.77,77.13,456,
Karnataka,RAICHUR,16.2,77.35,407,
Karnataka,BAGALKOTE,16.18,75.7,533,
Karnataka,GADAG,15.43,75.63,655,
Karnataka,HAVERI,14.8,75.4,556,
Karnataka,KOPPAL,15.35,76.15,543,
Karnataka,BANGALORE RUR,13.2,77.7,900,
Karnataka,BELLARY,15.14,76.92,485,
Karnataka,CHIKMAGALUR,13.32,75.77,1090,
Karnataka,CHITRADURGA,14.23,76.4,732,
Karnataka,KODAGU,12.42,75.73,1150,
Karnataka,HASSAN,13,76.1,970,
Karnataka,KOLAR,13.13,78.13,830,
Karnataka,MANDYA,12.52,76.9,678,
Karnataka,MYSORE,12.3,76.65,763,
Karnataka,SHIMOGA,13.93,75.57,569,
Karnataka,TUMKUR,13.34,77.1,800,
Karnataka,BANGALORE URB,12.97,77.59,920,
Karnataka,CHAMARAJANAGA,11.92,76.94,662,
Karnataka,DAVANGERE,14.47,75.92,602,
Karnataka,RAMNAGAR,12.72,77.28,826,
Karnataka,CHICKBALLAPUR,13.43,77.73,915,
Kerala,ALAPPUZHA,9.5,76.33,10,
Kerala,CANNUR,11.87,75.37,14,
Kerala,ERNAKULAM,9.98,76.28,7,
Kerala,KOTTAYAM,9.59,76.52,41,
Kerala,KOZHIKODE,11.25,75.77,15,
Kerala,MALAPPURAM,11.07,76.07,36,
Kerala,PALAKKAD,10.77,76.65,84,
Kerala,KOLLAM,8.88,76.6,10,
Kerala,THRISSUR,10.52,76.21,25,
Kerala,THIRUVANANTHA,8.52,76.94,19,
Kerala,IDUKKI,9.85,77.17,1200,
Kerala,KASARGOD,12.5,75,19,
Kerala,PATHANAMTHITTA,9.26,76.78,47,
Kerala,WAYANAD,11.61,76.08,792,
Lakshadweep,LAKSHADWEEP,10.57,72.64,1,
